{"dB": [{"id": 1, "name": "Abhijit Jadhav", "address": "Aundh ", "latitude": "18.558", "longitude": "73.8075", "mode": "bus", "distance1": "7.6 km", "time_req": "18 mins", "group_id": "4NW", "start_id": 1}, {"id": 2, "name": "Abhishek  Tatti", "address": "Aundh Camp ", "latitude": "18.5552", "longitude": "73.8189", "mode": "2w_shared", "distance1": "9.0 km", "time_req": "20 mins", "group_id": "5NW", "start_id": 44}, {"id": 3, "name": "Adesh Tajane", "address": "Aundh", "latitude": "18.558", "longitude": "73.8075", "mode": "2w_shared", "distance1": "7.6 km", "time_req": "18 mins", "group_id": "4NW", "start_id": 1}, {"id": 4, "name": "Aditi Jain", "address": "Bajirao Road ", "latitude": "18.5055", "longitude": "73.8536", "mode": "bus", "distance1": "3.0 km", "time_req": "11 mins", "group_id": "2S", "start_id": 35}, {"id": 5, "name": "Aditya Jain", "address": "Baner Gaon ", "latitude": "18.559", "longitude": "73.7868", "mode": "None", "distance1": "9.1 km", "time_req": "22 mins", "group_id": "5W", "start_id": 5}, {"id": 6, "name": "Aditya Dhage", "address": "Baner Road ", "latitude": "18.554", "longitude": "73.7972", "mode": "bus", "distance1": "7.3 km", "time_req": "42 mins", "group_id": "4W", "start_id": 6}, {"id": 7, "name": "Aditya Gaydhani", "address": "Bavdhan ", "latitude": "18.5156", "longitude": "73.7819", "mode": "2w_shared", "distance1": "11.3 km", "time_req": "25 mins", "group_id": "6W", "start_id": 7}, {"id": 8, "name": "Adwaita Jadhav", "address": "Bhosari I.E. ", "latitude": "18.6385", "longitude": "73.8478", "mode": "4w_shared", "distance1": "18.9 km", "time_req": "34 mins", "group_id": "10N", "start_id": 8}, {"id": 9, "name": "Amit Dharmadhikari", "address": "Bhosarigoan ", "latitude": "18.5598", "longitude": "73.8916", "mode": "bus", "distance1": "18.9 km", "time_req": "34 mins", "group_id": "10NE", "start_id": 8}, {"id": 10, "name": "ANAND WANI", "address": "Bhusari Colony ", "latitude": "18.5082", "longitude": "73.7904", "mode": "bus", "distance1": "13.1 km", "time_req": "29 mins", "group_id": "7W", "start_id": 10}, {"id": 11, "name": "Ankit Surkar", "address": "Bibvewadi ", "latitude": "18.4718", "longitude": "73.8671", "mode": "2w_shared", "distance1": "9.1 km", "time_req": "29 mins", "group_id": "5S", "start_id": 26}, {"id": 12, "name": "Ankita Purwar", "address": "Botanical Garden (Pune)", "latitude": "18.566", "longitude": "73.8257", "mode": "4w_shared", "distance1": "6.9 km", "time_req": "17 mins", "group_id": "4NW", "start_id": 1}, {"id": 13, "name": "Ashutosh Kedar", "address": "C D A (O) ", "latitude": "18.5204", "longitude": "73.8567", "mode": "None", "distance1": "5.4 km", "time_req": "17 mins", "group_id": "3S", "start_id": 54}, {"id": 14, "name": "Atharv Vibhute", "address": "C M E ", "latitude": "18.5204", "longitude": "73.8567", "mode": "bus", "distance1": "7.7 km", "time_req": "50 mins", "group_id": "4S", "start_id": 14}, {"id": 15, "name": "Chaitanya S Mamidwar", "address": "Chikhali ", "latitude": "18.671", "longitude": "73.8243", "mode": "bus", "distance1": "18.7 km", "time_req": "38 mins", "group_id": "10N", "start_id": 72}, {"id": 16, "name": "Darpan Bafana", "address": "Chinchwad East ", "latitude": "18.6298", "longitude": "73.7997", "mode": "None", "distance1": "16.0 km", "time_req": "29 mins", "group_id": "8NW", "start_id": 16}, {"id": 17, "name": "DEEPALI ANDE", "address": "Chinchwadgaon ", "latitude": "18.6276", "longitude": "73.7809", "mode": "None", "distance1": "17.2 km", "time_req": "1 hour 14 mins", "group_id": "9NW", "start_id": 17}, {"id": 18, "name": "Dhawal bhai Patel", "address": "Congress House Road ", "latitude": "18.5228", "longitude": "73.8531", "mode": "bus", "distance1": "2.1 km", "time_req": "11 mins", "group_id": "2S", "start_id": 35}, {"id": 19, "name": "DIKSHA RAJMANE", "address": "Dapodi ", "latitude": "18.5129", "longitude": "74.3998", "mode": "4w_shared", "distance1": "7.9 km", "time_req": "18 mins", "group_id": "4E", "start_id": 19}, {"id": 20, "name": "Eshwar Nag Pilli", "address": "Dapodi Bazar ", "latitude": "18.6233", "longitude": "73.7997", "mode": "bus", "distance1": "1.8 km", "time_req": "6 mins", "group_id": "1NW", "start_id": 41}, {"id": 21, "name": "Gaurav Chaudhari", "address": "Deccan Gymkhana ", "latitude": "18.5176", "longitude": "73.8417", "mode": "4w_shared", "distance1": "4.1 km", "time_req": "13 mins", "group_id": "3SW", "start_id": 21}, {"id": 22, "name": "Gaurav Agarwal", "address": "Dhankawadi ", "latitude": "18.4616", "longitude": "73.8505", "mode": "2w_shared", "distance1": "10.3 km", "time_req": "33 mins", "group_id": "6S", "start_id": 46}, {"id": 23, "name": "Hussain Bohra", "address": "Dhanori ", "latitude": "18.5835", "longitude": "73.8865", "mode": "bus", "distance1": "9.5 km", "time_req": "23 mins", "group_id": "5NE", "start_id": 23}, {"id": 24, "name": "Isha Chaudhari", "address": "Dhayari ", "latitude": "18.4422", "longitude": "73.8096", "mode": "2w_shared", "distance1": "13.3 km", "time_req": "43 mins", "group_id": "7SW", "start_id": 24}, {"id": 25, "name": "Ketan Bedarkar", "address": "Dighi Camp ", "latitude": "18.5598", "longitude": "73.8916", "mode": "2w_shared", "distance1": "9.5 km", "time_req": "20 mins", "group_id": "5NE", "start_id": 23}, {"id": 26, "name": "Khemraj Adhawade", "address": "Dr.B.A. Chowk ", "latitude": "18.5214", "longitude": "73.8552", "mode": "4w_shared", "distance1": "9.8 km", "time_req": "31 mins", "group_id": "5S", "start_id": 26}, {"id": 27, "name": "KIRAN SHINDE", "address": "East Khadki ", "latitude": "18.5699", "longitude": "73.8506", "mode": "4w_shared", "distance1": "5.8 km", "time_req": "16 mins", "group_id": "3N", "start_id": 27}, {"id": 28, "name": "Krushna Mantri", "address": "Ex. Serviceman Colony ", "latitude": "18.5204", "longitude": "73.8567", "mode": "2w_shared", "distance1": "7.1 km", "time_req": "22 mins", "group_id": "4S", "start_id": 14}, {"id": 29, "name": "KUMAR NISHANT", "address": "Film Institute ", "latitude": "18.5204", "longitude": "73.8567", "mode": "bus", "distance1": "5.3 km", "time_req": "31 mins", "group_id": "3S", "start_id": 54}, {"id": 30, "name": "Mayur Padma", "address": "Ganeshkhind ", "latitude": "18.5596", "longitude": "73.8171", "mode": "2w_shared", "distance1": "6.4 km", "time_req": "14 mins", "group_id": "4NW", "start_id": 1}, {"id": 31, "name": "NEEHARIKA GOYAL", "address": "Ghorpade Peth ", "latitude": "18.5019", "longitude": "73.8663", "mode": "2w_shared", "distance1": "4.6 km", "time_req": "16 mins", "group_id": "3S", "start_id": 54}, {"id": 32, "name": "Neha Patil", "address": "Ghorpuri Bazar ", "latitude": "18.5282", "longitude": "73.8939", "mode": "bus", "distance1": "4.9 km", "time_req": "15 mins", "group_id": "3E", "start_id": 32}, {"id": 33, "name": "Nikita Dhoot", "address": "Gokhalenagar ", "latitude": "18.5296", "longitude": "73.8213", "mode": "bus", "distance1": "5.1 km", "time_req": "17 mins", "group_id": "3W", "start_id": 33}, {"id": 34, "name": "NISHANT GADEKAR", "address": "Gondhale Nagar ", "latitude": "18.4941", "longitude": "73.9489", "mode": "None", "distance1": "12.0 km", "time_req": "32 mins", "group_id": "6SE", "start_id": 34}, {"id": 35, "name": "NITU CHOUDHARY", "address": "Govt. Polytechnic ", "latitude": "18.5204", "longitude": "73.8567", "mode": "None", "distance1": "3.9 km", "time_req": "28 mins", "group_id": "2S", "start_id": 35}, {"id": 36, "name": "Piyush Chaudhari", "address": "Guruwar Peth ", "latitude": "18.5064", "longitude": "73.8603", "mode": "4w_shared", "distance1": "4.4 km", "time_req": "18 mins", "group_id": "3S", "start_id": 54}, {"id": 37, "name": "Piyush Khadse", "address": "H.E. Factory ", "latitude": "18.5666", "longitude": "73.8531", "mode": "2w_shared", "distance1": "4.4 km", "time_req": "10 mins", "group_id": "3N", "start_id": 27}, {"id": 38, "name": "Pooja Chate", "address": "Hadapsar ", "latitude": "18.5089", "longitude": "73.926", "mode": "None", "distance1": "10.2 km", "time_req": "30 mins", "group_id": "6E", "start_id": 38}, {"id": 39, "name": "Prabhat Pandey", "address": "Indrayaninagar ", "latitude": "18.5495", "longitude": "73.8426", "mode": "4w_shared", "distance1": "3.8 km", "time_req": "31 mins", "group_id": 